{"data":{"locations":{"edges":[{"node":{"fields":{"slug":"/locations/cideon/","locationId":"cideon"},"frontmatter":{"name":"CIDEON Software GmbH & Co. KG","info":null,"street":"Untermarkt","number":"25","zip":"02826","city":"Görlitz"}}},{"node":{"fields":{"slug":"/locations/dser_elisabethstrasse/","locationId":"dser_elisabethstrasse"},"frontmatter":{"name":"DSER","info":null,"street":"Elisabethstraße","number":"42/43","zip":"02826","city":"Görlitz"}}},{"node":{"fields":{"slug":"/locations/dser_steinstrasse/","locationId":"dser_steinstrasse"},"frontmatter":{"name":"DSER","info":null,"street":"Steinstraße","number":"11","zip":"02826","city":"Görlitz"}}},{"node":{"fields":{"slug":"/locations/hochschule_campus/","locationId":"hochschule_campus"},"frontmatter":{"name":"Hochschule Zittau/Görlitz","info":"Haus G2 Raum 0.10","street":"Brückenstraße","number":"1","zip":"02826","city":"Görlitz"}}},{"node":{"fields":{"slug":"/locations/hochschule_obermarkt/","locationId":"hochschule_obermarkt"},"frontmatter":{"name":"Hochschule Zittau/Görlitz","info":null,"street":"Obermarkt","number":"17","zip":"02826","city":"Görlitz"}}},{"node":{"fields":{"slug":"/locations/saxsys/","locationId":"saxsys"},"frontmatter":{"name":"Saxonia Systems AG","info":null,"street":"Berliner Straße","number":"63","zip":"02826","city":"Görlitz"}}},{"node":{"fields":{"slug":"/locations/sqs/","locationId":"sqs"},"frontmatter":{"name":"SQS TestCenter Görlitz","info":null,"street":"Brückenstraße","number":"10","zip":"02826","city":"Görlitz"}}}]},"talks":{"edges":[{"node":{"id":"06d9125a-c39a-55d0-b5c4-fde7e766df34","frontmatter":{"title":"Refactoring to a System of Systems","location":"saxsys"}}},{"node":{"id":"0221a5bb-9d3f-55ac-9d0c-57f4eadc1e4e","frontmatter":{"title":"Entwicklung von Java Applikationen auf der SAP Cloud Platform","location":"cideon"}}},{"node":{"id":"5af1fbce-1b0e-5d01-b5a0-74632f08cc25","frontmatter":{"title":"Mikro- vs. Makroarchitektur – Spielraum und Spielregeln","location":"hochschule_campus"}}},{"node":{"id":"e432a182-4f51-58aa-b5a1-3a9041fea8aa","frontmatter":{"title":"Kotlin","location":"saxsys"}}},{"node":{"id":"f9730c8b-a540-58c1-8896-69f460b90bc6","frontmatter":{"title":"GraphQL","location":"hochschule_campus"}}},{"node":{"id":"34934ec0-9420-5d9a-b241-7abecb51ce72","frontmatter":{"title":"Immutable Data - Unveränderliche Daten im Griff","location":"hochschule_campus"}}},{"node":{"id":"6d8ef2f0-55dc-58b6-ba53-2830d2a8eaf8","frontmatter":{"title":"Java APIs - the missing manual","location":null}}},{"node":{"id":"aa76e38c-c655-5de4-84bc-2135baea885e","frontmatter":{"title":"EasyMock","location":"hochschule_obermarkt"}}},{"node":{"id":"85c82b11-e0b7-5b34-8668-cd6b5435b5ae","frontmatter":{"title":"Scala","location":"dser_steinstrasse"}}},{"node":{"id":"7b40bde5-cf89-5a5a-b179-1f4f6161442b","frontmatter":{"title":"Android","location":"dser_steinstrasse"}}},{"node":{"id":"a5e23bda-2576-5284-a180-a4516a922cff","frontmatter":{"title":"Jenkins/Hudson","location":"hochschule_obermarkt"}}},{"node":{"id":"14c006b7-ed89-5061-bd88-6b85d8de161c","frontmatter":{"title":"Maven","location":"dser_steinstrasse"}}},{"node":{"id":"ec8aca18-97d0-5878-a909-2829b0fafcfb","frontmatter":{"title":"JSR-303 BeanValidation","location":"saxsys"}}},{"node":{"id":"22e81245-b708-53b6-a519-887c311dbbb8","frontmatter":{"title":"JRuby - Ruby auf der Java VM","location":"hochschule_campus"}}},{"node":{"id":"ebfc1b77-22c9-5b37-a6a4-31201dd1b07e","frontmatter":{"title":"GWT - Google Web Toolkit","location":"dser_steinstrasse"}}},{"node":{"id":"18d8ac90-7c7f-5fed-b5b6-ed5324550fff","frontmatter":{"title":"Persona - Werkzeug für die GUI-Entwicklung","location":"dser_steinstrasse"}}},{"node":{"id":"84673a06-9b54-52d6-a7fc-31370f9ef67e","frontmatter":{"title":"Java8 - Streams und Lambdas","location":"hochschule_obermarkt"}}},{"node":{"id":"e0a83d18-2297-5eab-a3f7-ee0ff5cc03a3","frontmatter":{"title":"Model-View-*: UI-Design-Patterns im Detail","location":"saxsys"}}},{"node":{"id":"e6f3b631-8596-5dd4-8a0e-7aed91a5b7f8","frontmatter":{"title":"Fortgeschrittene Android-Entwicklung","location":"saxsys"}}},{"node":{"id":"740ae9ad-a44e-5cd8-998a-b11b5d0a0e69","frontmatter":{"title":"Regelbasierte Systeme mit JBoss Drools","location":"hochschule_obermarkt"}}},{"node":{"id":"e728644d-9524-585d-bcbf-bad122180743","frontmatter":{"title":"Guava","location":"dser_elisabethstrasse"}}}]}},"pageContext":{}}