{"data":{"locations":{"edges":[{"node":{"fields":{"slug":"/locations/cideon/","locationId":"cideon"},"frontmatter":{"name":"CIDEON Software GmbH & Co. KG","info":null,"street":"Untermarkt","number":"25","zip":"02826","city":"Görlitz"}}},{"node":{"fields":{"slug":"/locations/dser_elisabethstrasse/","locationId":"dser_elisabethstrasse"},"frontmatter":{"name":"DSER","info":null,"street":"Elisabethstraße","number":"42/43","zip":"02826","city":"Görlitz"}}},{"node":{"fields":{"slug":"/locations/dser_steinstrasse/","locationId":"dser_steinstrasse"},"frontmatter":{"name":"DSER","info":null,"street":"Steinstraße","number":"11","zip":"02826","city":"Görlitz"}}},{"node":{"fields":{"slug":"/locations/hochschule_campus/","locationId":"hochschule_campus"},"frontmatter":{"name":"Hochschule Zittau/Görlitz","info":"Haus G2 Raum 0.10","street":"Brückenstraße","number":"1","zip":"02826","city":"Görlitz"}}},{"node":{"fields":{"slug":"/locations/hochschule_obermarkt/","locationId":"hochschule_obermarkt"},"frontmatter":{"name":"Hochschule Zittau/Görlitz","info":null,"street":"Obermarkt","number":"17","zip":"02826","city":"Görlitz"}}},{"node":{"fields":{"slug":"/locations/saxsys/","locationId":"saxsys"},"frontmatter":{"name":"Saxonia Systems AG","info":null,"street":"Berliner Straße","number":"63","zip":"02826","city":"Görlitz"}}},{"node":{"fields":{"slug":"/locations/sqs/","locationId":"sqs"},"frontmatter":{"name":"SQS TestCenter Görlitz","info":null,"street":"Brückenstraße","number":"10","zip":"02826","city":"Görlitz"}}}]},"talks":{"edges":[{"node":{"id":"06d9125a-c39a-55d0-b5c4-fde7e766df34","frontmatter":{"title":"Refactoring to a System of Systems","location":"saxsys"}}},{"node":{"id":"0221a5bb-9d3f-55ac-9d0c-57f4eadc1e4e","frontmatter":{"title":"Entwicklung von Java Applikationen auf der SAP Cloud Platform","location":"cideon"}}},{"node":{"id":"5af1fbce-1b0e-5d01-b5a0-74632f08cc25","frontmatter":{"title":"Mikro- vs. Makroarchitektur – Spielraum und Spielregeln","location":"hochschule_campus"}}},{"node":{"id":"e432a182-4f51-58aa-b5a1-3a9041fea8aa","frontmatter":{"title":"Kotlin","location":"saxsys"}}},{"node":{"id":"f9730c8b-a540-58c1-8896-69f460b90bc6","frontmatter":{"title":"GraphQL","location":"hochschule_campus"}}},{"node":{"id":"34934ec0-9420-5d9a-b241-7abecb51ce72","frontmatter":{"title":"Immutable Data - Unveränderliche Daten im Griff","location":"hochschule_campus"}}},{"node":{"id":"6d8ef2f0-55dc-58b6-ba53-2830d2a8eaf8","frontmatter":{"title":"Java APIs - the missing manual","location":null}}},{"node":{"id":"aa76e38c-c655-5de4-84bc-2135baea885e","frontmatter":{"title":"EasyMock","location":"hochschule_obermarkt"}}}]}},"pageContext":{}}